[
    {
      "id": 1,
      "name": "Salman Khan",
      "photo": "src/assets/salman khan.jpg",
      "description": "A prominent Bollywood actor known for his charisma and action-packed films like Bajrangi Bhaijaan and Dabangg. Salman has a huge fan following and is also involved in philanthropy through his charity, Being Human",
      "address": "Erandol",
      "latitude": 20.926579,
      "longitude": 75.332474
    },
    {
      "id": 2,
      "name": "Shah Rukh Khan",
      "photo": "src/assets/shahrukh khan.jpg",
      "description": "A prominent Bollywood actor known for his charisma and action-packed films like Bajrangi Bhaijaan and Dabangg. Salman has a huge fan following and is also involved in philanthropy through his charity, Being Human",
      "address": "456 Elm St, City, Country",
      "latitude": 21.0077,
      "longitude": 75.5626
    },
    {
      "id": 3,
      "name": "Amir Khan",
      "photo": "src/assets/amir khan.jpg",
      "description": "A prominent Bollywood actor known for his charisma and action-packed films like Bajrangi Bhaijaan and Dabangg. Salman has a huge fan following and is also involved in philanthropy through his charity, Being Human",
      "address": "456 Elm St, City, Country",
      "latitude": 20.6589,
      "longitude": 75.3492
    },
    {
      "id": 4,
      "name": "Arjun Rampal",
      "photo": "src/assets/arjun.jpg",
      "description": "A prominent Bollywood actor known for his charisma and action-packed films like Bajrangi Bhaijaan and Dabangg. Salman has a huge fan following and is also involved in philanthropy through his charity, Being Human",
      "address": "456 Elm St, City, Country",
      "latitude": 22.9676,
      "longitude": 76.0534
    },
    {
      "id": 5,
      "name": "Ranbeer Kapoor",
      "photo": "src/assets/ranbir.jpg",
      "description": "A prominent Bollywood actor known for his charisma and action-packed films like Bajrangi Bhaijaan and Dabangg. Salman has a huge fan following and is also involved in philanthropy through his charity, Being Human",
      "address": "456 Elm St, City, Country",
      "latitude": 21.1702,
      "longitude": 72.8311
    },
    {
      "id": 6,
      "name": "Sanjay Dutt",
      "photo": "src/assets/sanjay.jpg",
      "description": "A prominent Bollywood actor known for his charisma and action-packed films like Bajrangi Bhaijaan and Dabangg. Salman has a huge fan following and is also involved in philanthropy through his charity, Being Human",
      "address": "456 Elm St, City, Country",
      "latitude": 32.7266,
      "longitude": 74.8570
    }

  ]